$GPRMC,162101.00,A,3944.37028,N,10458.10199,W,0.258,,071117,,,D*60
$GPRMC,162102.00,A,3944.37131,N,10458.10311,W,0.011,,071117,,,D*67
$GPRMC,162103.00,A,3944.37176,N,10458.10344,W,0.047,,071117,,,D*66
$GPRMC,162104.00,A,3944.37263,N,10458.10428,W,0.079,,071117,,,D*66
$GPRMC,162105.00,A,3944.37346,N,10458.10484,W,0.042,,071117,,,D*6F
$GPRMC,162106.00,A,3944.37399,N,10458.10549,W,0.153,,071117,,,D*6F
$GPRMC,162107.00,A,3944.37439,N,10458.10581,W,0.081,,071117,,,D*69
$GPRMC,162108.00,A,3944.37446,N,10458.10593,W,0.047,,071117,,,D*67
$GPRMC,162109.00,A,3944.37458,N,10458.10594,W,0.033,,071117,,,D*6D
$GPRMC,162110.00,A,3944.37467,N,10458.10595,W,0.009,,071117,,,D*61
$GPRMC,162111.00,A,3944.37476,N,10458.10603,W,0.042,,071117,,,D*63
$GPRMC,162112.00,A,3944.37496,N,10458.10601,W,0.051,,071117,,,D*6E
$GPRMC,162113.00,A,3944.37513,N,10458.10604,W,0.209,,071117,,,D*69
$GPRMC,162114.00,A,3944.37557,N,10458.10617,W,1.336,3.39,071117,,,D*77
$GPRMC,162115.00,A,3944.37653,N,10458.10629,W,3.667,358.31,071117,,,D*7A
$GPRMC,162116.00,A,3944.37838,N,10458.10635,W,7.350,359.44,071117,,,D*71
$GPRMC,162117.00,A,3944.38158,N,10458.10631,W,11.960,0.75,071117,,,D*47
$GPRMC,162118.00,A,3944.38589,N,10458.10639,W,15.524,359.89,071117,,,D*4C
$GPRMC,162119.00,A,3944.39037,N,10458.10647,W,15.991,0.10,071117,,,D*48
$GPRMC,162120.00,A,3944.39484,N,10458.10669,W,16.164,358.49,071117,,,D*41
$GPRMC,162121.00,A,3944.39917,N,10458.10769,W,15.514,347.70,071117,,,D*42
$GPRMC,162122.00,A,3944.40316,N,10458.11024,W,15.904,331.96,071117,,,D*4F
$GPRMC,162123.00,A,3944.40712,N,10458.11406,W,17.833,323.54,071117,,,D*40
$GPRMC,162124.00,A,3944.41153,N,10458.11864,W,20.192,321.06,071117,,,D*4E
$GPRMC,162125.00,A,3944.41626,N,10458.12391,W,22.337,319.49,071117,,,D*47
$GPRMC,162126.00,A,3944.42131,N,10458.13057,W,24.993,315.07,071117,,,D*4A
$GPRMC,162127.00,A,3944.42653,N,10458.13710,W,26.009,316.34,071117,,,D*47
$GPRMC,162128.00,A,3944.43208,N,10458.14396,W,27.258,316.56,071117,,,D*4D
$GPRMC,162129.00,A,3944.43778,N,10458.15113,W,28.141,316.03,071117,,,D*44
$GPRMC,162130.00,A,3944.44353,N,10458.15868,W,28.880,315.32,071117,,,D*46
$GPRMC,162131.00,A,3944.44922,N,10458.16620,W,28.966,314.58,071117,,,D*4E
$GPRMC,162132.00,A,3944.45478,N,10458.17328,W,28.308,315.55,071117,,,D*4C
$GPRMC,162133.00,A,3944.46037,N,10458.18069,W,28.440,314.97,071117,,,D*4C
$GPRMC,162134.00,A,3944.46592,N,10458.18794,W,28.208,315.11,071117,,,D*41
$GPRMC,162135.00,A,3944.47144,N,10458.19519,W,28.089,314.98,071117,,,D*43
$GPRMC,162136.00,A,3944.47692,N,10458.20239,W,27.930,314.90,071117,,,D*4F
$GPRMC,162137.00,A,3944.48238,N,10458.20931,W,27.482,315.65,071117,,,D*49
$GPRMC,162138.00,A,3944.48788,N,10458.21638,W,27.712,315.32,071117,,,D*47
$GPRMC,162139.00,A,3944.49338,N,10458.22353,W,28.163,315.06,071117,,,D*4B
$GPRMC,162140.00,A,3944.49893,N,10458.23082,W,28.285,314.96,071117,,,D*42
$GPRMC,162141.00,A,3944.50450,N,10458.23809,W,28.315,315.06,071117,,,D*43
$GPRMC,162142.00,A,3944.51021,N,10458.24547,W,28.805,315.37,071117,,,D*4B
$GPRMC,162143.00,A,3944.51585,N,10458.25283,W,28.833,314.88,071117,,,D*4F
$GPRMC,162144.00,A,3944.52153,N,10458.26024,W,28.906,314.94,071117,,,D*42
$GPRMC,162145.00,A,3944.52722,N,10458.26767,W,28.928,314.71,071117,,,D*44
$GPRMC,162146.00,A,3944.53292,N,10458.27508,W,28.943,315.08,071117,,,D*40
$GPRMC,162147.00,A,3944.53868,N,10458.28266,W,29.294,314.78,071117,,,D*48
$GPRMC,162148.00,A,3944.54463,N,10458.29048,W,30.127,314.84,071117,,,D*48
$GPRMC,162149.00,A,3944.55058,N,10458.29818,W,30.219,315.11,071117,,,D*4A
$GPRMC,162150.00,A,3944.55659,N,10458.30595,W,30.493,315.18,071117,,,D*48
$GPRMC,162151.00,A,3944.56255,N,10458.31381,W,30.349,314.72,071117,,,D*4D
$GPRMC,162152.00,A,3944.56856,N,10458.32162,W,30.415,315.06,071117,,,D*47
$GPRMC,162153.00,A,3944.57443,N,10458.32945,W,30.349,314.49,071117,,,D*46
$GPRMC,162154.00,A,3944.58040,N,10458.33721,W,30.276,315.17,071117,,,D*43
$GPRMC,162155.00,A,3944.58644,N,10458.34505,W,30.505,314.82,071117,,,D*4D
$GPRMC,162156.00,A,3944.59242,N,10458.35293,W,30.781,314.71,071117,,,D*46
$GPRMC,162157.00,A,3944.59849,N,10458.36075,W,30.769,315.29,071117,,,D*45
$GPRMC,162158.00,A,3944.60453,N,10458.36859,W,30.684,315.05,071117,,,D*4D
$GPRMC,162159.00,A,3944.61052,N,10458.37649,W,30.526,314.49,071117,,,D*44
$GPRMC,162200.00,A,3944.61646,N,10458.38441,W,30.460,314.05,071117,,,D*46
$GPRMC,162201.00,A,3944.62229,N,10458.39227,W,30.205,314.22,071117,,,D*4E
$GPRMC,162202.00,A,3944.62820,N,10458.40009,W,30.019,314.50,071117,,,D*44
$GPRMC,162203.00,A,3944.63398,N,10458.40695,W,28.572,317.15,071117,,,D*4C
$GPRMC,162204.00,A,3944.63977,N,10458.41439,W,29.007,315.21,071117,,,D*46
$GPRMC,162205.00,A,3944.64548,N,10458.42172,W,28.828,315.38,071117,,,D*45
$GPRMC,162206.00,A,3944.65115,N,10458.42888,W,28.407,315.56,071117,,,D*4E
$GPRMC,162207.00,A,3944.65681,N,10458.43628,W,28.577,314.82,071117,,,D*4E
$GPRMC,162208.00,A,3944.66240,N,10458.44350,W,28.236,315.09,071117,,,D*46
$GPRMC,162209.00,A,3944.66806,N,10458.45087,W,28.629,315.01,071117,,,D*45
$GPRMC,162210.00,A,3944.67371,N,10458.45827,W,28.790,314.88,071117,,,D*46
$GPRMC,162211.00,A,3944.67946,N,10458.46572,W,29.193,314.96,071117,,,D*4C
$GPRMC,162212.00,A,3944.68521,N,10458.47327,W,29.310,314.68,071117,,,D*42
$GPRMC,162213.00,A,3944.69095,N,10458.48086,W,29.405,314.43,071117,,,D*45
$GPRMC,162214.00,A,3944.69668,N,10458.48855,W,29.493,314.18,071117,,,D*41
$GPRMC,162215.00,A,3944.70233,N,10458.49600,W,29.030,314.89,071117,,,D*48
$GPRMC,162216.00,A,3944.70799,N,10458.50346,W,28.827,314.73,071117,,,D*4B
$GPRMC,162217.00,A,3944.71360,N,10458.51091,W,28.648,314.54,071117,,,D*43
$GPRMC,162218.00,A,3944.71918,N,10458.51826,W,28.555,314.88,071117,,,D*43
$GPRMC,162219.00,A,3944.72457,N,10458.52537,W,27.415,314.36,071117,,,D*46
$GPRMC,162220.00,A,3944.72928,N,10458.53145,W,23.947,314.67,071117,,,D*43
$GPRMC,162221.00,A,3944.73352,N,10458.53713,W,21.174,314.24,071117,,,D*4C
$GPRMC,162222.00,A,3944.73745,N,10458.54228,W,20.220,314.60,071117,,,D*44
$GPRMC,162223.00,A,3944.74134,N,10458.54757,W,20.036,314.74,071117,,,D*4F
$GPRMC,162224.00,A,3944.74512,N,10458.55295,W,20.122,314.29,071117,,,D*4E
$GPRMC,162225.00,A,3944.74921,N,10458.55837,W,20.994,314.45,071117,,,D*4E
$GPRMC,162226.00,A,3944.75361,N,10458.56408,W,22.405,314.83,071117,,,D*4C
$GPRMC,162227.00,A,3944.75828,N,10458.57020,W,24.581,314.27,071117,,,D*41
$GPRMC,162228.00,A,3944.76307,N,10458.57647,W,25.118,314.52,071117,,,D*4B
$GPRMC,162229.00,A,3944.76807,N,10458.58261,W,25.068,316.70,071117,,,D*4A
$GPRMC,162230.00,A,3944.77317,N,10458.58911,W,25.725,315.78,071117,,,D*40
$GPRMC,162231.00,A,3944.77845,N,10458.59586,W,26.874,315.41,071117,,,D*4C
$GPRMC,162232.00,A,3944.78346,N,10458.60258,W,25.352,313.31,071117,,,D*4B
$GPRMC,162233.00,A,3944.78796,N,10458.60818,W,20.637,315.07,071117,,,D*4D
$GPRMC,162234.00,A,3944.79161,N,10458.61324,W,18.283,314.97,071117,,,D*48
$GPRMC,162235.00,A,3944.79521,N,10458.61800,W,18.347,314.34,071117,,,D*44
$GPRMC,162236.00,A,3944.79869,N,10458.62259,W,17.557,314.57,071117,,,D*4E
$GPRMC,162237.00,A,3944.80199,N,10458.62671,W,16.322,315.98,071117,,,D*46
$GPRMC,162238.00,A,3944.80540,N,10458.63125,W,17.575,314.58,071117,,,D*46
$GPRMC,162239.00,A,3944.80880,N,10458.63597,W,18.427,315.20,071117,,,D*4C
$GPRMC,162240.00,A,3944.81227,N,10458.64097,W,18.369,310.55,071117,,,D*4C
$GPRMC,162241.00,A,3944.81586,N,10458.64588,W,18.597,314.76,071117,,,D*48
$GPRMC,162242.00,A,3944.81947,N,10458.65033,W,17.514,316.02,071117,,,D*4B
$GPRMC,162243.00,A,3944.82261,N,10458.65436,W,14.933,315.21,071117,,,D*4F
$GPRMC,162244.00,A,3944.82492,N,10458.65739,W,10.552,314.15,071117,,,D*47
$GPRMC,162245.00,A,3944.82626,N,10458.65901,W,5.690,315.15,071117,,,D*76
$GPRMC,162246.00,A,3944.82709,N,10458.65981,W,3.418,317.11,071117,,,D*73
$GPRMC,162247.00,A,3944.82775,N,10458.66065,W,4.288,318.36,071117,,,D*7B
$GPRMC,162248.00,A,3944.82899,N,10458.66173,W,7.096,320.95,071117,,,D*73
$GPRMC,162249.00,A,3944.83098,N,10458.66392,W,10.374,319.41,071117,,,D*4D
$GPRMC,162250.00,A,3944.83374,N,10458.66762,W,13.524,316.48,071117,,,D*49
$GPRMC,162251.00,A,3944.83702,N,10458.67218,W,16.070,315.09,071117,,,D*43
$GPRMC,162252.00,A,3944.84061,N,10458.67702,W,18.405,314.91,071117,,,D*43
$GPRMC,162253.00,A,3944.84458,N,10458.68233,W,20.672,314.65,071117,,,D*46
$GPRMC,162254.00,A,3944.84904,N,10458.68831,W,23.196,314.65,071117,,,D*43
$GPRMC,162255.00,A,3944.85391,N,10458.69474,W,25.157,314.88,071117,,,D*41
$GPRMC,162256.00,A,3944.85903,N,10458.70139,W,26.288,315.28,071117,,,D*4E
$GPRMC,162257.00,A,3944.86443,N,10458.70836,W,27.473,314.71,071117,,,D*4D
$GPRMC,162258.00,A,3944.86979,N,10458.71539,W,27.439,314.50,071117,,,D*48
$GPRMC,162259.00,A,3944.87541,N,10458.72264,W,27.610,314.80,071117,,,D*47
$GPRMC,162300.00,A,3944.88081,N,10458.73001,W,28.330,314.89,071117,,,D*4D
$GPRMC,162301.00,A,3944.88640,N,10458.73726,W,28.493,315.15,071117,,,D*4F
$GPRMC,162302.00,A,3944.89203,N,10458.74461,W,28.738,314.84,071117,,,D*42
$GPRMC,162303.00,A,3944.89760,N,10458.75190,W,28.147,314.55,071117,,,D*4B
$GPRMC,162304.00,A,3944.90296,N,10458.75895,W,26.928,314.87,071117,,,D*44
$GPRMC,162305.00,A,3944.90816,N,10458.76576,W,26.801,314.78,071117,,,D*4E
$GPRMC,162306.00,A,3944.91333,N,10458.77269,W,26.243,314.15,071117,,,D*4F
$GPRMC,162307.00,A,3944.91843,N,10458.77945,W,26.092,314.84,071117,,,D*41
$GPRMC,162308.00,A,3944.92344,N,10458.78572,W,25.306,315.49,071117,,,D*4B
$GPRMC,162309.00,A,3944.92826,N,10458.79206,W,25.832,315.60,071117,,,D*47
$GPRMC,162310.00,A,3944.93340,N,10458.79840,W,25.348,315.28,071117,,,D*47
$GPRMC,162311.00,A,3944.93859,N,10458.80508,W,25.997,315.45,071117,,,D*41
$GPRMC,162312.00,A,3944.94384,N,10458.81179,W,26.208,315.66,071117,,,D*42
$GPRMC,162313.00,A,3944.94903,N,10458.81856,W,26.843,314.16,071117,,,D*41
$GPRMC,162314.00,A,3944.95422,N,10458.82454,W,25.853,317.95,071117,,,D*4E
$GPRMC,162315.00,A,3944.95947,N,10458.82976,W,24.798,321.65,071117,,,D*4F
$GPRMC,162316.00,A,3944.96455,N,10458.83620,W,24.957,315.03,071117,,,D*46
$GPRMC,162317.00,A,3944.96974,N,10458.84301,W,25.227,315.08,071117,,,D*4E
$GPRMC,162318.00,A,3944.97488,N,10458.84977,W,25.340,314.95,071117,,,D*40
$GPRMC,162319.00,A,3944.98029,N,10458.85637,W,25.120,314.64,071117,,,D*41
$GPRMC,162320.00,A,3944.98532,N,10458.86314,W,24.839,315.03,071117,,,D*43
$GPRMC,162321.00,A,3944.99036,N,10458.86981,W,25.569,315.29,071117,,,D*45
$GPRMC,162322.00,A,3944.99550,N,10458.87650,W,25.873,315.25,071117,,,D*4B
$GPRMC,162323.00,A,3945.00052,N,10458.88319,W,26.038,315.05,071117,,,D*4D
$GPRMC,162324.00,A,3945.00556,N,10458.88978,W,25.384,315.24,071117,,,D*42
$GPRMC,162325.00,A,3945.01064,N,10458.89653,W,25.726,314.59,071117,,,D*46
$GPRMC,162326.00,A,3945.01562,N,10458.90323,W,25.681,314.39,071117,,,D*46
$GPRMC,162327.00,A,3945.02029,N,10458.90966,W,24.781,314.63,071117,,,D*4A
$GPRMC,162328.00,A,3945.02481,N,10458.91594,W,23.079,315.01,071117,,,D*41
$GPRMC,162329.00,A,3945.02907,N,10458.92177,W,22.174,314.69,071117,,,D*4B
$GPRMC,162330.00,A,3945.03313,N,10458.92724,W,20.809,315.18,071117,,,D*4B
$GPRMC,162331.00,A,3945.03677,N,10458.93198,W,18.242,314.77,071117,,,D*4B
$GPRMC,162332.00,A,3945.03992,N,10458.93607,W,15.313,314.75,071117,,,D*47
$GPRMC,162333.00,A,3945.04233,N,10458.93927,W,11.607,314.61,071117,,,D*4D
$GPRMC,162334.00,A,3945.04404,N,10458.94144,W,7.920,314.78,071117,,,D*77
$GPRMC,162335.00,A,3945.04506,N,10458.94266,W,4.774,314.58,071117,,,D*78
$GPRMC,162336.00,A,3945.04567,N,10458.94343,W,2.749,314.43,071117,,,D*78
$GPRMC,162337.00,A,3945.04598,N,10458.94357,W,1.382,312.30,071117,,,D*7E
$GPRMC,162338.00,A,3945.04610,N,10458.94376,W,0.661,,071117,,,D*65
$GPRMC,162339.00,A,3945.04613,N,10458.94411,W,0.287,,071117,,,D*6D
$GPRMC,162340.00,A,3945.04612,N,10458.94425,W,0.256,,071117,,,D*69
$GPRMC,162341.00,A,3945.04617,N,10458.94450,W,0.200,,071117,,,D*6C
$GPRMC,162342.00,A,3945.04616,N,10458.94477,W,0.173,,071117,,,D*6C
$GPRMC,162343.00,A,3945.04616,N,10458.94504,W,0.114,,071117,,,D*69
$GPRMC,162344.00,A,3945.04616,N,10458.94527,W,0.154,,071117,,,D*6B
$GPRMC,162345.00,A,3945.04619,N,10458.94556,W,0.057,,071117,,,D*61
$GPRMC,162346.00,A,3945.04618,N,10458.94569,W,0.074,,071117,,,D*6E
$GPRMC,162347.00,A,3945.04611,N,10458.94579,W,0.188,,071117,,,D*65
$GPRMC,162348.00,A,3945.04601,N,10458.94597,W,0.094,,071117,,,D*67
$GPRMC,162349.00,A,3945.04596,N,10458.94616,W,0.024,,071117,,,D*6A
$GPRMC,162350.00,A,3945.04591,N,10458.94631,W,0.125,,071117,,,D*60
$GPRMC,162351.00,A,3945.04584,N,10458.94643,W,0.149,,071117,,,D*6A
$GPRMC,162352.00,A,3945.04577,N,10458.94658,W,0.102,,071117,,,D*60
$GPRMC,162353.00,A,3945.04568,N,10458.94676,W,0.028,,071117,,,D*6A
$GPRMC,162354.00,A,3945.04561,N,10458.94692,W,0.107,,071117,,,D*62
$GPRMC,162355.00,A,3945.04554,N,10458.94708,W,0.072,,071117,,,D*64
$GPRMC,162356.00,A,3945.04547,N,10458.94729,W,0.316,,071117,,,D*67
$GPRMC,162357.00,A,3945.04538,N,10458.94745,W,0.053,,071117,,,D*66
$GPRMC,162358.00,A,3945.04527,N,10458.94764,W,0.090,,071117,,,D*6B
$GPRMC,162359.00,A,3945.04509,N,10458.94786,W,0.036,,071117,,,D*66
$GPRMC,162400.00,A,3945.04507,N,10458.94799,W,0.287,,071117,,,D*65
$GPRMC,162401.00,A,3945.04495,N,10458.94812,W,0.190,,071117,,,D*67
$GPRMC,162402.00,A,3945.04486,N,10458.94822,W,0.138,,071117,,,D*67
$GPRMC,162403.00,A,3945.04483,N,10458.94822,W,0.475,,071117,,,D*6F
$GPRMC,162404.00,A,3945.04496,N,10458.94847,W,1.184,,071117,,,D*65
$GPRMC,162405.00,A,3945.04547,N,10458.94891,W,2.850,324.67,071117,,,D*7B
$GPRMC,162406.00,A,3945.04643,N,10458.95007,W,5.949,314.90,071117,,,D*7C
$GPRMC,162407.00,A,3945.04816,N,10458.95192,W,8.599,317.73,071117,,,D*7C
$GPRMC,162408.00,A,3945.04990,N,10458.95428,W,10.790,316.40,071117,,,D*4B
$GPRMC,162409.00,A,3945.05261,N,10458.95736,W,13.602,318.56,071117,,,D*42
$GPRMC,162410.00,A,3945.05592,N,10458.96096,W,16.218,318.69,071117,,,D*49
$GPRMC,162411.00,A,3945.05962,N,10458.96505,W,16.716,315.58,071117,,,D*40
$GPRMC,162412.00,A,3945.06388,N,10458.96951,W,17.475,315.30,071117,,,D*4A
$GPRMC,162413.00,A,3945.06796,N,10458.97433,W,19.032,314.92,071117,,,D*48
$GPRMC,162414.00,A,3945.07245,N,10458.97906,W,19.876,315.70,071117,,,D*4B
$GPRMC,162415.00,A,3945.07664,N,10458.98434,W,20.978,315.23,071117,,,D*4D
$GPRMC,162416.00,A,3945.08101,N,10458.99010,W,22.328,314.58,071117,,,D*46
$GPRMC,162417.00,A,3945.08545,N,10458.99608,W,22.882,314.71,071117,,,D*4C
$GPRMC,162418.00,A,3945.08998,N,10459.00196,W,23.330,315.27,071117,,,D*4F
$GPRMC,162419.00,A,3945.09473,N,10459.00830,W,24.559,314.20,071117,,,D*4A
$GPRMC,162420.00,A,3945.09953,N,10459.01471,W,24.557,314.35,071117,,,D*4D
$GPRMC,162421.00,A,3945.10439,N,10459.02116,W,24.981,314.55,071117,,,D*43
$GPRMC,162422.00,A,3945.10939,N,10459.02822,W,26.508,312.91,071117,,,D*42
$GPRMC,162423.00,A,3945.11453,N,10459.03486,W,26.483,314.99,071117,,,D*4C
$GPRMC,162424.00,A,3945.11964,N,10459.04133,W,26.403,313.61,071117,,,D*46
$GPRMC,162425.00,A,3945.12484,N,10459.04835,W,27.166,311.70,071117,,,D*4D
$GPRMC,162426.00,A,3945.13003,N,10459.05561,W,27.355,312.10,071117,,,D*4E
$GPRMC,162427.00,A,3945.13546,N,10459.06250,W,27.482,314.69,071117,,,D*48
$GPRMC,162428.00,A,3945.14104,N,10459.06931,W,27.000,315.35,071117,,,D*48
$GPRMC,162429.00,A,3945.14629,N,10459.07627,W,27.334,315.34,071117,,,D*4D
$GPRMC,162430.00,A,3945.15172,N,10459.08348,W,27.572,314.65,071117,,,D*4F
$GPRMC,162431.00,A,3945.15693,N,10459.09037,W,26.123,314.67,071117,,,D*4F
$GPRMC,162432.00,A,3945.16176,N,10459.09663,W,23.685,314.86,071117,,,D*45
$GPRMC,162433.00,A,3945.16618,N,10459.10250,W,22.031,314.23,071117,,,D*40
$GPRMC,162434.00,A,3945.17017,N,10459.10781,W,19.198,314.22,071117,,,D*4D
$GPRMC,162435.00,A,3945.17334,N,10459.11155,W,15.317,317.14,071117,,,D*4F
$GPRMC,162436.00,A,3945.17628,N,10459.11511,W,15.059,316.61,071117,,,D*4A
$GPRMC,162437.00,A,3945.17983,N,10459.11969,W,18.648,314.33,071117,,,D*48
$GPRMC,162438.00,A,3945.18502,N,10459.12562,W,23.630,315.38,071117,,,D*44
$GPRMC,162439.00,A,3945.19060,N,10459.13251,W,27.399,314.73,071117,,,D*4F
$GPRMC,162440.00,A,3945.19637,N,10459.14029,W,29.790,314.50,071117,,,D*4D
$GPRMC,162441.00,A,3945.20205,N,10459.14780,W,29.252,314.94,071117,,,D*44
$GPRMC,162442.00,A,3945.20780,N,10459.15536,W,29.227,314.97,071117,,,D*40
$GPRMC,162443.00,A,3945.21356,N,10459.16292,W,29.476,314.77,071117,,,D*49
$GPRMC,162444.00,A,3945.21913,N,10459.17047,W,29.310,314.99,071117,,,D*49
$GPRMC,162445.00,A,3945.22482,N,10459.17807,W,28.916,314.41,071117,,,D*4A
$GPRMC,162446.00,A,3945.23029,N,10459.18513,W,27.750,315.05,071117,,,D*48
$GPRMC,162447.00,A,3945.23566,N,10459.19206,W,27.397,314.81,071117,,,D*47
$GPRMC,162448.00,A,3945.24043,N,10459.19812,W,23.413,315.21,071117,,,D*46
$GPRMC,162449.00,A,3945.24362,N,10459.20241,W,16.330,311.02,071117,,,D*44
$GPRMC,162450.00,A,3945.24656,N,10459.20618,W,14.245,312.74,071117,,,D*45
$GPRMC,162451.00,A,3945.24847,N,10459.20863,W,9.686,315.06,071117,,,D*7D
$GPRMC,162452.00,A,3945.24991,N,10459.21047,W,6.181,314.78,071117,,,D*7C
$GPRMC,162453.00,A,3945.25086,N,10459.21175,W,3.273,314.69,071117,,,D*78
$GPRMC,162454.00,A,3945.25117,N,10459.21246,W,1.521,314.44,071117,,,D*78
$GPRMC,162455.00,A,3945.25122,N,10459.21296,W,0.604,,071117,,,D*6F
$GPRMC,162456.00,A,3945.25124,N,10459.21307,W,0.058,,071117,,,D*6C
$GPRMC,162457.00,A,3945.25127,N,10459.21326,W,0.023,,071117,,,D*61
$GPRMC,162458.00,A,3945.25118,N,10459.21333,W,0.099,,071117,,,D*67
$GPRMC,162459.00,A,3945.25105,N,10459.21326,W,0.044,,071117,,,D*6E
$GPRMC,162500.00,A,3945.25097,N,10459.21333,W,0.100,,071117,,,D*6C
$GPRMC,162501.00,A,3945.25098,N,10459.21351,W,0.059,,071117,,,D*6B
$GPRMC,162502.00,A,3945.25085,N,10459.21364,W,0.086,,071117,,,D*60
$GPRMC,162503.00,A,3945.25055,N,10459.21379,W,0.050,,071117,,,D*6B
$GPRMC,162504.00,A,3945.25036,N,10459.21394,W,0.107,,071117,,,D*69
$GPRMC,162505.00,A,3945.25034,N,10459.21426,W,0.046,,071117,,,D*60
$GPRMC,162506.00,A,3945.25037,N,10459.21441,W,0.029,,071117,,,D*68
$GPRMC,162507.00,A,3945.25035,N,10459.21446,W,0.015,,071117,,,D*63
$GPRMC,162508.00,A,3945.25039,N,10459.21459,W,0.037,,071117,,,D*6E
$GPRMC,162509.00,A,3945.25042,N,10459.21472,W,0.185,,071117,,,D*62
$GPRMC,162510.00,A,3945.25045,N,10459.21495,W,0.104,,071117,,,D*6D
$GPRMC,162511.00,A,3945.25048,N,10459.21509,W,0.060,,071117,,,D*66
$GPRMC,162512.00,A,3945.25051,N,10459.21517,W,0.026,,071117,,,D*60
$GPRMC,162513.00,A,3945.25051,N,10459.21521,W,0.083,,071117,,,D*6B
$GPRMC,162514.00,A,3945.25053,N,10459.21530,W,0.126,,071117,,,D*60
$GPRMC,162515.00,A,3945.25054,N,10459.21550,W,0.096,,071117,,,D*6A
$GPRMC,162516.00,A,3945.25056,N,10459.21565,W,0.025,,071117,,,D*65
$GPRMC,162517.00,A,3945.25058,N,10459.21574,W,0.130,,071117,,,D*6F
$GPRMC,162518.00,A,3945.25062,N,10459.21583,W,0.118,,071117,,,D*6B
$GPRMC,162519.00,A,3945.25065,N,10459.21590,W,0.017,,071117,,,D*61
$GPRMC,162520.00,A,3945.25079,N,10459.21598,W,0.014,,071117,,,D*6D
$GPRMC,162521.00,A,3945.25084,N,10459.21606,W,0.040,,071117,,,D*6B
$GPRMC,162522.00,A,3945.25089,N,10459.21607,W,0.056,,071117,,,D*63
$GPRMC,162523.00,A,3945.25091,N,10459.21611,W,0.076,,071117,,,D*6E
$GPRMC,162524.00,A,3945.25095,N,10459.21622,W,0.046,,071117,,,D*6E
$GPRMC,162525.00,A,3945.25096,N,10459.21631,W,0.044,,071117,,,D*6C
$GPRMC,162526.00,A,3945.25098,N,10459.21633,W,0.292,,071117,,,D*6A
$GPRMC,162527.00,A,3945.25102,N,10459.21640,W,0.210,,071117,,,D*67
$GPRMC,162528.00,A,3945.25104,N,10459.21649,W,0.078,,071117,,,D*6B
$GPRMC,162529.00,A,3945.25106,N,10459.21660,W,0.053,,071117,,,D*6A
$GPRMC,162530.00,A,3945.25108,N,10459.21669,W,0.299,,071117,,,D*61
$GPRMC,162531.00,A,3945.25108,N,10459.21680,W,0.238,,071117,,,D*6C
$GPRMC,162532.00,A,3945.25110,N,10459.21692,W,0.065,,071117,,,D*6F
$GPRMC,162533.00,A,3945.25110,N,10459.21701,W,0.051,,071117,,,D*62
$GPRMC,162534.00,A,3945.25109,N,10459.21704,W,0.069,,071117,,,D*63
$GPRMC,162535.00,A,3945.25109,N,10459.21716,W,0.259,,071117,,,D*60
$GPRMC,162536.00,A,3945.25108,N,10459.21725,W,0.164,,071117,,,D*6F
$GPRMC,162537.00,A,3945.25111,N,10459.21726,W,0.035,,071117,,,D*60
$GPRMC,162538.00,A,3945.25105,N,10459.21729,W,0.041,,071117,,,D*66
$GPRMC,162539.00,A,3945.25101,N,10459.21740,W,0.402,,071117,,,D*6F
$GPRMC,162540.00,A,3945.25144,N,10459.21767,W,1.677,311.88,071117,,,D*79
$GPRMC,162541.00,A,3945.25223,N,10459.21880,W,4.852,314.93,071117,,,D*7F
$GPRMC,162542.00,A,3945.25359,N,10459.22062,W,7.946,313.91,071117,,,D*75
$GPRMC,162543.00,A,3945.25556,N,10459.22324,W,10.970,314.51,071117,,,D*44
$GPRMC,162544.00,A,3945.25813,N,10459.22672,W,14.219,313.65,071117,,,D*49
$GPRMC,162545.00,A,3945.26101,N,10459.23049,W,14.642,315.17,071117,,,D*47
$GPRMC,162546.00,A,3945.26394,N,10459.23431,W,15.009,314.73,071117,,,D*4A
$GPRMC,162547.00,A,3945.26740,N,10459.23887,W,18.370,314.31,071117,,,D*41
$GPRMC,162548.00,A,3945.27120,N,10459.24392,W,20.008,314.27,071117,,,D*47
$GPRMC,162549.00,A,3945.27536,N,10459.24937,W,21.514,315.11,071117,,,D*4D
$GPRMC,162550.00,A,3945.27976,N,10459.25511,W,22.162,315.40,071117,,,D*46
$GPRMC,162551.00,A,3945.28431,N,10459.26095,W,23.302,315.25,071117,,,D*4A
$GPRMC,162552.00,A,3945.28892,N,10459.26661,W,23.296,316.04,071117,,,D*4D
$GPRMC,162553.00,A,3945.29358,N,10459.27267,W,23.661,314.79,071117,,,D*47
$GPRMC,162554.00,A,3945.29825,N,10459.27881,W,23.601,314.97,071117,,,D*45
$GPRMC,162555.00,A,3945.30292,N,10459.28489,W,23.561,315.18,071117,,,D*42
$GPRMC,162556.00,A,3945.30763,N,10459.29102,W,23.912,314.12,071117,,,D*4E
$GPRMC,162557.00,A,3945.31225,N,10459.29710,W,23.501,314.57,071117,,,D*43
$GPRMC,162558.00,A,3945.31682,N,10459.30313,W,23.096,314.71,071117,,,D*45
$GPRMC,162559.00,A,3945.32136,N,10459.30894,W,22.910,314.84,071117,,,D*47
$GPRMC,162600.00,A,3945.32585,N,10459.31488,W,22.987,314.17,071117,,,D*40
$GPRMC,162601.00,A,3945.33023,N,10459.32053,W,22.517,314.80,071117,,,D*43
$GPRMC,162602.00,A,3945.33461,N,10459.32621,W,21.967,315.29,071117,,,D*4B
$GPRMC,162603.00,A,3945.33890,N,10459.33169,W,21.696,315.03,071117,,,D*4B
$GPRMC,162604.00,A,3945.34315,N,10459.33716,W,21.524,315.16,071117,,,D*4D
$GPRMC,162605.00,A,3945.34735,N,10459.34257,W,21.474,314.82,071117,,,D*45
$GPRMC,162606.00,A,3945.35144,N,10459.34784,W,21.070,314.44,071117,,,D*46
$GPRMC,162607.00,A,3945.35592,N,10459.35373,W,22.013,314.69,071117,,,D*4C
$GPRMC,162608.00,A,3945.36041,N,10459.35954,W,23.137,314.85,071117,,,D*40
$GPRMC,162609.00,A,3945.36496,N,10459.36526,W,23.983,315.38,071117,,,D*45
$GPRMC,162610.00,A,3945.36977,N,10459.37118,W,24.667,316.18,071117,,,D*44
$GPRMC,162611.00,A,3945.37430,N,10459.37602,W,23.371,318.93,071117,,,D*4E
$GPRMC,162612.00,A,3945.37904,N,10459.38119,W,23.290,319.37,071117,,,D*44
$GPRMC,162613.00,A,3945.38393,N,10459.38731,W,24.244,316.11,071117,,,D*47
$GPRMC,162614.00,A,3945.38875,N,10459.39348,W,23.608,315.33,071117,,,D*40
$GPRMC,162615.00,A,3945.39324,N,10459.39903,W,21.804,316.63,071117,,,D*4C
$GPRMC,162616.00,A,3945.39832,N,10459.40438,W,20.626,323.23,071117,,,D*45
$GPRMC,162617.00,A,3945.40266,N,10459.40901,W,17.856,322.00,071117,,,D*4B
$GPRMC,162618.00,A,3945.40578,N,10459.41253,W,12.794,319.19,071117,,,D*45
$GPRMC,162619.00,A,3945.40779,N,10459.41486,W,9.300,318.47,071117,,,D*70
$GPRMC,162620.00,A,3945.40990,N,10459.41733,W,8.920,319.85,071117,,,D*78
$GPRMC,162621.00,A,3945.41176,N,10459.42003,W,10.848,317.07,071117,,,D*4D
$GPRMC,162622.00,A,3945.41435,N,10459.42315,W,12.343,315.72,071117,,,D*4A
$GPRMC,162623.00,A,3945.41700,N,10459.42671,W,13.780,314.76,071117,,,D*46
$GPRMC,162624.00,A,3945.41969,N,10459.43026,W,13.328,314.82,071117,,,D*48
$GPRMC,162625.00,A,3945.42245,N,10459.43404,W,13.869,314.95,071117,,,D*43
$GPRMC,162626.00,A,3945.42558,N,10459.43836,W,16.200,315.15,071117,,,D*4F
$GPRMC,162627.00,A,3945.42889,N,10459.44271,W,16.819,314.79,071117,,,D*48
$GPRMC,162628.00,A,3945.43222,N,10459.44680,W,17.288,315.66,071117,,,D*4B
$GPRMC,162629.00,A,3945.43581,N,10459.45145,W,18.662,316.18,071117,,,D*4E
$GPRMC,162630.00,A,3945.43955,N,10459.45643,W,19.972,315.46,071117,,,D*45
$GPRMC,162631.00,A,3945.44335,N,10459.46157,W,20.129,315.13,071117,,,D*42
$GPRMC,162632.00,A,3945.44740,N,10459.46688,W,20.403,315.56,071117,,,D*4E
$GPRMC,162633.00,A,3945.45161,N,10459.47233,W,20.959,315.67,071117,,,D*4E
$GPRMC,162634.00,A,3945.45586,N,10459.47787,W,21.351,315.05,071117,,,D*49
$GPRMC,162635.00,A,3945.46024,N,10459.48344,W,22.327,315.05,071117,,,D*40
$GPRMC,162636.00,A,3945.46494,N,10459.48952,W,24.026,314.72,071117,,,D*44
$GPRMC,162637.00,A,3945.47002,N,10459.49625,W,25.754,314.92,071117,,,D*4C
$GPRMC,162638.00,A,3945.47550,N,10459.50322,W,26.815,314.96,071117,,,D*46
$GPRMC,162639.00,A,3945.48084,N,10459.51052,W,27.932,314.47,071117,,,D*48
$GPRMC,162640.00,A,3945.48644,N,10459.51790,W,29.032,314.65,071117,,,D*42
$GPRMC,162641.00,A,3945.49217,N,10459.52561,W,29.374,314.82,071117,,,D*47
$GPRMC,162642.00,A,3945.49794,N,10459.53322,W,29.044,314.87,071117,,,D*4F
$GPRMC,162643.00,A,3945.50364,N,10459.54068,W,28.957,314.86,071117,,,D*4C
$GPRMC,162644.00,A,3945.50932,N,10459.54788,W,28.090,314.84,071117,,,D*4B
$GPRMC,162645.00,A,3945.51447,N,10459.55452,W,25.016,315.52,071117,,,D*48
$GPRMC,162646.00,A,3945.51925,N,10459.56079,W,23.365,315.25,071117,,,D*4D
$GPRMC,162647.00,A,3945.52372,N,10459.56658,W,22.166,315.38,071117,,,D*4E
$GPRMC,162648.00,A,3945.52776,N,10459.57200,W,19.745,314.96,071117,,,D*43
$GPRMC,162649.00,A,3945.53124,N,10459.57681,W,17.169,314.89,071117,,,D*47
$GPRMC,162650.00,A,3945.53452,N,10459.58115,W,15.647,315.26,071117,,,D*43
$GPRMC,162651.00,A,3945.53754,N,10459.58508,W,14.898,315.14,071117,,,D*43
$GPRMC,162652.00,A,3945.54012,N,10459.58849,W,12.985,314.59,071117,,,D*49
$GPRMC,162653.00,A,3945.54211,N,10459.59116,W,9.438,314.42,071117,,,D*70
$GPRMC,162654.00,A,3945.54359,N,10459.59316,W,6.494,315.23,071117,,,D*77
$GPRMC,162655.00,A,3945.54445,N,10459.59424,W,3.208,315.68,071117,,,D*73
$GPRMC,162656.00,A,3945.54472,N,10459.59459,W,1.048,314.35,071117,,,D*73
$GPRMC,162657.00,A,3945.54478,N,10459.59475,W,0.227,,071117,,,D*62
$GPRMC,162658.00,A,3945.54482,N,10459.59493,W,0.175,,071117,,,D*64
$GPRMC,162659.00,A,3945.54481,N,10459.59498,W,0.086,,071117,,,D*60
$GPRMC,162700.00,A,3945.54474,N,10459.59505,W,0.092,,071117,,,D*67
$GPRMC,162701.00,A,3945.54467,N,10459.59506,W,0.170,,071117,,,D*6A
$GPRMC,162702.00,A,3945.54463,N,10459.59512,W,0.070,,071117,,,D*69
$GPRMC,162703.00,A,3945.54461,N,10459.59520,W,0.046,,071117,,,D*6E
$GPRMC,162704.00,A,3945.54449,N,10459.59526,W,0.016,,071117,,,D*60
$GPRMC,162705.00,A,3945.54452,N,10459.59542,W,0.426,,071117,,,D*6E
$GPRMC,162706.00,A,3945.54453,N,10459.59549,W,0.121,,071117,,,D*65
$GPRMC,162707.00,A,3945.54454,N,10459.59554,W,0.046,,071117,,,D*6F
$GPRMC,162708.00,A,3945.54453,N,10459.59558,W,0.141,,071117,,,D*6D
$GPRMC,162709.00,A,3945.54451,N,10459.59563,W,0.323,,071117,,,D*60
$GPRMC,162710.00,A,3945.54454,N,10459.59579,W,0.370,,071117,,,D*60
$GPRMC,162711.00,A,3945.54455,N,10459.59588,W,0.098,,071117,,,D*6B
$GPRMC,162712.00,A,3945.54456,N,10459.59591,W,0.011,,071117,,,D*62
$GPRMC,162713.00,A,3945.54456,N,10459.59596,W,0.533,,071117,,,D*61
$GPRMC,162714.00,A,3945.54458,N,10459.59611,W,0.565,,071117,,,D*67
$GPRMC,162715.00,A,3945.54456,N,10459.59614,W,0.271,,071117,,,D*6F
$GPRMC,162716.00,A,3945.54457,N,10459.59619,W,0.256,,071117,,,D*65
$GPRMC,162717.00,A,3945.54464,N,10459.59638,W,0.466,,071117,,,D*62
$GPRMC,162718.00,A,3945.54470,N,10459.59657,W,0.693,,071117,,,D*69
$GPRMC,162719.00,A,3945.54473,N,10459.59656,W,0.663,,071117,,,D*65
$GPRMC,162720.00,A,3945.54487,N,10459.59670,W,1.189,311.79,071117,,,D*71
$GPRMC,162721.00,A,3945.54552,N,10459.59713,W,5.092,314.00,071117,,,D*79
$GPRMC,162722.00,A,3945.54722,N,10459.59915,W,9.121,313.31,071117,,,D*77
$GPRMC,162723.00,A,3945.54921,N,10459.60167,W,10.903,314.09,071117,,,D*40
$GPRMC,162724.00,A,3945.55178,N,10459.60508,W,13.675,314.61,071117,,,D*4C
$GPRMC,162725.00,A,3945.55482,N,10459.60895,W,16.165,315.24,071117,,,D*47
$GPRMC,162726.00,A,3945.55848,N,10459.61369,W,19.550,314.71,071117,,,D*4B
$GPRMC,162727.00,A,3945.56268,N,10459.61901,W,22.144,315.21,071117,,,D*48
$GPRMC,162728.00,A,3945.56733,N,10459.62479,W,23.245,316.13,071117,,,D*4C
$GPRMC,162729.00,A,3945.57236,N,10459.63078,W,25.259,317.39,071117,,,D*4A
$GPRMC,162730.00,A,3945.57803,N,10459.63713,W,27.931,319.43,071117,,,D*40
$GPRMC,162731.00,A,3945.58438,N,10459.64347,W,30.057,322.71,071117,,,D*4E
$GPRMC,162732.00,A,3945.59142,N,10459.64982,W,31.461,326.17,071117,,,D*43
$GPRMC,162733.00,A,3945.59899,N,10459.65535,W,32.903,329.33,071117,,,D*4F
$GPRMC,162734.00,A,3945.60725,N,10459.66123,W,34.556,331.46,071117,,,D*4B
$GPRMC,162735.00,A,3945.61652,N,10459.66644,W,35.118,334.98,071117,,,D*45
$GPRMC,162736.00,A,3945.62564,N,10459.67173,W,35.358,338.80,071117,,,D*42
$GPRMC,162737.00,A,3945.63476,N,10459.67562,W,35.693,342.63,071117,,,D*46
$GPRMC,162738.00,A,3945.64416,N,10459.67930,W,35.716,344.87,071117,,,D*43
$GPRMC,162739.00,A,3945.65391,N,10459.68174,W,36.328,349.29,071117,,,D*4F
$GPRMC,162740.00,A,3945.66376,N,10459.68239,W,36.792,355.16,071117,,,D*45
$GPRMC,162741.00,A,3945.67376,N,10459.68318,W,35.611,357.44,071117,,,D*4B
$GPRMC,162742.00,A,3945.68373,N,10459.68353,W,36.078,358.99,071117,,,D*48
$GPRMC,162743.00,A,3945.69388,N,10459.68377,W,36.741,358.71,071117,,,D*41
$GPRMC,162744.00,A,3945.70402,N,10459.68417,W,36.635,358.85,071117,,,D*43
$GPRMC,162745.00,A,3945.71424,N,10459.68441,W,37.012,359.01,071117,,,D*4B
$GPRMC,162746.00,A,3945.72443,N,10459.68463,W,36.710,358.80,071117,,,D*46
$GPRMC,162747.00,A,3945.73453,N,10459.68478,W,36.489,358.53,071117,,,D*40
$GPRMC,162748.00,A,3945.74461,N,10459.68501,W,36.420,358.80,071117,,,D*4B
$GPRMC,162749.00,A,3945.75464,N,10459.68522,W,35.989,358.73,071117,,,D*4E
$GPRMC,162750.00,A,3945.76467,N,10459.68542,W,36.185,358.65,071117,,,D*40
$GPRMC,162751.00,A,3945.77470,N,10459.68544,W,36.150,358.43,071117,,,D*4C
$GPRMC,162752.00,A,3945.78476,N,10459.68554,W,36.357,358.63,071117,,,D*40
$GPRMC,162753.00,A,3945.79495,N,10459.68567,W,36.394,358.80,071117,,,D*4F
$GPRMC,162754.00,A,3945.80507,N,10459.68598,W,36.561,358.54,071117,,,D*41
$GPRMC,162755.00,A,3945.81522,N,10459.68608,W,36.705,358.55,071117,,,D*4D
$GPRMC,162756.00,A,3945.82540,N,10459.68616,W,36.726,358.60,071117,,,D*41
$GPRMC,162757.00,A,3945.83562,N,10459.68644,W,36.726,358.60,071117,,,D*46
$GPRMC,162758.00,A,3945.84551,N,10459.68691,W,34.636,358.47,071117,,,D*41
$GPRMC,162759.00,A,3945.85501,N,10459.68723,W,33.761,358.58,071117,,,D*46
$GPRMC,162800.00,A,3945.86386,N,10459.68750,W,31.193,358.58,071117,,,D*42
$GPRMC,162801.00,A,3945.87194,N,10459.68768,W,28.436,358.42,071117,,,D*41
$GPRMC,162802.00,A,3945.87917,N,10459.68774,W,25.287,358.06,071117,,,D*4D
$GPRMC,162803.00,A,3945.88547,N,10459.68761,W,20.865,359.65,071117,,,D*49
$GPRMC,162804.00,A,3945.89059,N,10459.68764,W,17.564,359.05,071117,,,D*4E
$GPRMC,162805.00,A,3945.89477,N,10459.68783,W,14.004,358.43,071117,,,D*4D
$GPRMC,162806.00,A,3945.89842,N,10459.68794,W,12.758,358.99,071117,,,D*4D
$GPRMC,162807.00,A,3945.90205,N,10459.68803,W,13.191,358.98,071117,,,D*4F
$GPRMC,162808.00,A,3945.90569,N,10459.68806,W,13.172,359.45,071117,,,D*44
$GPRMC,162809.00,A,3945.90899,N,10459.68808,W,11.520,359.05,071117,,,D*4C
$GPRMC,162810.00,A,3945.91160,N,10459.68811,W,8.562,359.45,071117,,,D*78
$GPRMC,162811.00,A,3945.91349,N,10459.68815,W,6.139,359.46,071117,,,D*73
$GPRMC,162812.00,A,3945.91468,N,10459.68815,W,3.649,359.72,071117,,,D*76
$GPRMC,162813.00,A,3945.91525,N,10459.68817,W,1.646,359.35,071117,,,D*73
$GPRMC,162814.00,A,3945.91541,N,10459.68821,W,0.281,,071117,,,D*6A
$GPRMC,162815.00,A,3945.91539,N,10459.68821,W,0.000,,071117,,,D*6F
$GPRMC,162816.00,A,3945.91536,N,10459.68819,W,0.054,,071117,,,D*69
$GPRMC,162817.00,A,3945.91530,N,10459.68822,W,0.121,,071117,,,D*65
$GPRMC,162818.00,A,3945.91524,N,10459.68826,W,0.074,,071117,,,D*6A
$GPRMC,162819.00,A,3945.91522,N,10459.68816,W,0.046,,071117,,,D*6F
$GPRMC,162820.00,A,3945.91514,N,10459.68814,W,0.034,,071117,,,D*67
$GPRMC,162821.00,A,3945.91525,N,10459.68796,W,0.035,,071117,,,D*60
$GPRMC,162822.00,A,3945.91519,N,10459.68798,W,0.026,,071117,,,D*60
$GPRMC,162823.00,A,3945.91516,N,10459.68799,W,0.113,,071117,,,D*68
$GPRMC,162824.00,A,3945.91513,N,10459.68796,W,0.133,,071117,,,D*67
$GPRMC,162825.00,A,3945.91509,N,10459.68800,W,0.232,,071117,,,D*6F
$GPRMC,162826.00,A,3945.91529,N,10459.68806,W,1.435,359.10,071117,,,D*78
$GPRMC,162827.00,A,3945.91569,N,10459.68809,W,1.795,359.64,071117,,,D*78
$GPRMC,162828.00,A,3945.91633,N,10459.68814,W,2.554,358.53,071117,,,D*7E
$GPRMC,162829.00,A,3945.91730,N,10459.68822,W,4.158,359.72,071117,,,D*74
$GPRMC,162830.00,A,3945.91927,N,10459.68823,W,8.141,359.81,071117,,,D*7D
$GPRMC,162831.00,A,3945.92228,N,10459.68828,W,11.930,359.61,071117,,,D*48
$GPRMC,162832.00,A,3945.92607,N,10459.68844,W,14.469,358.61,071117,,,D*4D
$GPRMC,162833.00,A,3945.93041,N,10459.68855,W,16.114,359.46,071117,,,D*40
$GPRMC,162834.00,A,3945.93519,N,10459.68853,W,17.839,0.47,071117,,,D*40
$GPRMC,162835.00,A,3945.94040,N,10459.68851,W,19.446,0.11,071117,,,D*44
$GPRMC,162836.00,A,3945.94622,N,10459.68842,W,21.462,1.09,071117,,,D*42
$GPRMC,162837.00,A,3945.95246,N,10459.68826,W,22.760,1.41,071117,,,D*48
$GPRMC,162838.00,A,3945.95895,N,10459.68811,W,23.863,1.18,071117,,,D*46
$GPRMC,162839.00,A,3945.96563,N,10459.68802,W,24.478,0.99,071117,,,D*4B
$GPRMC,162840.00,A,3945.97242,N,10459.68787,W,24.285,0.86,071117,,,D*48
$GPRMC,162841.00,A,3945.97899,N,10459.68773,W,23.392,1.10,071117,,,D*40
$GPRMC,162842.00,A,3945.98484,N,10459.68761,W,20.442,1.03,071117,,,D*44
$GPRMC,162843.00,A,3945.99000,N,10459.68747,W,17.839,1.46,071117,,,D*4D
$GPRMC,162844.00,A,3945.99481,N,10459.68726,W,17.011,1.80,071117,,,D*48
$GPRMC,162845.00,A,3945.99912,N,10459.68717,W,15.085,2.21,071117,,,D*4B
$GPRMC,162846.00,A,3946.00279,N,10459.68704,W,12.334,2.38,071117,,,D*49
$GPRMC,162847.00,A,3946.00593,N,10459.68683,W,10.992,2.68,071117,,,D*44
$GPRMC,162848.00,A,3946.00897,N,10459.68667,W,10.921,2.59,071117,,,D*42
$GPRMC,162849.00,A,3946.01198,N,10459.68649,W,10.681,3.62,071117,,,D*44
$GPRMC,162850.00,A,3946.01498,N,10459.68611,W,10.753,6.49,071117,,,D*46
$GPRMC,162851.00,A,3946.01827,N,10459.68524,W,12.647,10.43,071117,,,D*71
$GPRMC,162852.00,A,3946.02172,N,10459.68368,W,13.424,17.52,071117,,,D*77
$GPRMC,162853.00,A,3946.02510,N,10459.68117,W,14.301,31.20,071117,,,D*7A
$GPRMC,162854.00,A,3946.02783,N,10459.67664,W,16.706,54.53,071117,,,D*7F
$GPRMC,162855.00,A,3946.02956,N,10459.67061,W,18.007,73.22,071117,,,D*70
$GPRMC,162856.00,A,3946.02992,N,10459.66304,W,20.320,86.97,071117,,,D*73
$GPRMC,162857.00,A,3946.02984,N,10459.65499,W,22.601,90.10,071117,,,D*79
$GPRMC,162858.00,A,3946.02970,N,10459.64641,W,24.568,90.93,071117,,,D*7A
$GPRMC,162859.00,A,3946.02952,N,10459.63729,W,25.864,91.23,071117,,,D*79
$GPRMC,162900.00,A,3946.02927,N,10459.62771,W,25.925,90.99,071117,,,D*7E
$GPRMC,162901.00,A,3946.02942,N,10459.61858,W,25.616,87.56,071117,,,D*71
$GPRMC,162902.00,A,3946.03011,N,10459.60964,W,25.026,83.78,071117,,,D*7E
$GPRMC,162903.00,A,3946.03154,N,10459.60147,W,22.779,75.10,071117,,,D*7B
$GPRMC,162904.00,A,3946.03408,N,10459.59426,W,21.843,62.70,071117,,,D*7D
$GPRMC,162905.00,A,3946.03731,N,10459.58787,W,21.132,54.24,071117,,,D*77
$GPRMC,162906.00,A,3946.04084,N,10459.58262,W,20.657,44.56,071117,,,D*75
$GPRMC,162907.00,A,3946.04524,N,10459.57824,W,20.374,35.24,071117,,,D*7B
$GPRMC,162908.00,A,3946.05051,N,10459.57465,W,21.826,25.39,071117,,,D*7B
$GPRMC,162909.00,A,3946.05665,N,10459.57158,W,24.263,20.05,071117,,,D*74
$GPRMC,162910.00,A,3946.06362,N,10459.56855,W,26.716,19.47,071117,,,D*71
$GPRMC,162911.00,A,3946.07103,N,10459.56513,W,28.687,20.01,071117,,,D*74
$GPRMC,162912.00,A,3946.07911,N,10459.56168,W,30.289,19.50,071117,,,D*79
$GPRMC,162913.00,A,3946.08739,N,10459.55806,W,31.332,19.30,071117,,,D*77
$GPRMC,162914.00,A,3946.09583,N,10459.55423,W,32.411,19.28,071117,,,D*75
$GPRMC,162915.00,A,3946.10450,N,10459.55044,W,33.185,19.15,071117,,,D*71
$GPRMC,162916.00,A,3946.11345,N,10459.54646,W,34.096,19.33,071117,,,D*75
$GPRMC,162917.00,A,3946.12243,N,10459.54229,W,35.204,19.37,071117,,,D*71
$GPRMC,162918.00,A,3946.13194,N,10459.53795,W,36.199,19.53,071117,,,D*75
$GPRMC,162919.00,A,3946.14164,N,10459.53364,W,36.769,20.01,071117,,,D*72
$GPRMC,162920.00,A,3946.15130,N,10459.52882,W,37.346,21.58,071117,,,D*7F
$GPRMC,162921.00,A,3946.16040,N,10459.52256,W,36.690,30.88,071117,,,D*7A
$GPRMC,162922.00,A,3946.16917,N,10459.51484,W,38.410,34.24,071117,,,D*7E
$GPRMC,162923.00,A,3946.17790,N,10459.50651,W,40.430,36.47,071117,,,D*7E
$GPRMC,162924.00,A,3946.18724,N,10459.49750,W,42.492,36.57,071117,,,D*7A
$GPRMC,162925.00,A,3946.19694,N,10459.48820,W,43.371,36.14,071117,,,D*75
$GPRMC,162926.00,A,3946.20620,N,10459.47927,W,41.040,36.17,071117,,,D*7A
$GPRMC,162927.00,A,3946.21545,N,10459.47081,W,40.323,35.26,071117,,,D*79
$GPRMC,162928.00,A,3946.22472,N,10459.46264,W,40.551,33.99,071117,,,D*79
$GPRMC,162929.00,A,3946.23410,N,10459.45476,W,40.074,32.72,071117,,,D*7D
$GPRMC,162930.00,A,3946.24347,N,10459.44727,W,39.456,31.22,071117,,,D*7D
$GPRMC,162931.00,A,3946.25298,N,10459.44035,W,39.062,28.83,071117,,,D*7A
$GPRMC,162932.00,A,3946.26280,N,10459.43361,W,40.158,27.88,071117,,,D*74
$GPRMC,162933.00,A,3946.27286,N,10459.42712,W,40.347,27.19,071117,,,D*77
$GPRMC,162934.00,A,3946.28309,N,10459.42054,W,41.244,26.42,071117,,,D*70
$GPRMC,162935.00,A,3946.29374,N,10459.41423,W,42.353,24.96,071117,,,D*72
$GPRMC,162936.00,A,3946.30475,N,10459.40781,W,43.530,24.54,071117,,,D*79
$GPRMC,162937.00,A,3946.31643,N,10459.40199,W,44.357,22.70,071117,,,D*71
$GPRMC,162938.00,A,3946.32877,N,10459.39681,W,44.420,20.86,071117,,,D*78
$GPRMC,162939.00,A,3946.34063,N,10459.39164,W,44.492,19.31,071117,,,D*71
$GPRMC,162940.00,A,3946.35251,N,10459.38664,W,44.682,18.08,071117,,,D*73
$GPRMC,162941.00,A,3946.36478,N,10459.38221,W,45.016,16.93,071117,,,D*7F
$GPRMC,162942.00,A,3946.37691,N,10459.37773,W,45.338,15.80,071117,,,D*7B
$GPRMC,162943.00,A,3946.38917,N,10459.37358,W,45.671,14.37,071117,,,D*7C
$GPRMC,162944.00,A,3946.40153,N,10459.36964,W,45.784,13.45,071117,,,D*71
$GPRMC,162945.00,A,3946.41401,N,10459.36593,W,46.035,12.89,071117,,,D*78
$GPRMC,162946.00,A,3946.42656,N,10459.36265,W,45.939,11.10,071117,,,D*73
$GPRMC,162947.00,A,3946.43923,N,10459.35979,W,46.429,9.51,071117,,,D*48
$GPRMC,162948.00,A,3946.45190,N,10459.35730,W,45.801,8.26,071117,,,D*46
$GPRMC,162949.00,A,3946.46460,N,10459.35521,W,45.470,7.13,071117,,,D*4F
$GPRMC,162950.00,A,3946.47728,N,10459.35350,W,45.396,6.15,071117,,,D*41
$GPRMC,162951.00,A,3946.48976,N,10459.35205,W,45.408,4.60,071117,,,D*4B
$GPRMC,162952.00,A,3946.50233,N,10459.35098,W,45.308,3.57,071117,,,D*49
$GPRMC,162953.00,A,3946.51488,N,10459.35016,W,45.137,2.63,071117,,,D*41
$GPRMC,162954.00,A,3946.52745,N,10459.34979,W,45.321,0.67,071117,,,D*45
$GPRMC,162955.00,A,3946.54024,N,10459.35001,W,46.294,358.60,071117,,,D*40
$GPRMC,162956.00,A,3946.55336,N,10459.35043,W,47.430,358.56,071117,,,D*48
$GPRMC,162957.00,A,3946.56679,N,10459.35074,W,48.512,359.16,071117,,,D*4B
$GPRMC,162958.00,A,3946.58074,N,10459.35081,W,50.746,0.05,071117,,,D*4C
$GPRMC,162959.00,A,3946.59460,N,10459.35066,W,49.774,0.58,071117,,,D*45
$GPRMC,163000.00,A,3946.60909,N,10459.35063,W,51.800,0.36,071117,,,D*41
$GPRMC,163001.00,A,3946.62359,N,10459.35069,W,52.733,0.71,071117,,,D*48
$GPRMC,163002.00,A,3946.63854,N,10459.35000,W,53.084,0.94,071117,,,D*42
$GPRMC,163003.00,A,3946.65338,N,10459.35008,W,53.523,0.74,071117,,,D*4A
$GPRMC,163004.00,A,3946.66835,N,10459.34986,W,53.531,0.58,071117,,,D*4B
$GPRMC,163005.00,A,3946.68311,N,10459.34949,W,53.753,1.41,071117,,,D*45
$GPRMC,163006.00,A,3946.69783,N,10459.34939,W,53.531,1.57,071117,,,D*4E
$GPRMC,163007.00,A,3946.71254,N,10459.34899,W,53.467,1.17,071117,,,D*44
$GPRMC,163008.00,A,3946.72743,N,10459.34879,W,53.727,0.64,071117,,,D*47
$GPRMC,163009.00,A,3946.74238,N,10459.34851,W,53.863,0.58,071117,,,D*43
$GPRMC,163010.00,A,3946.75676,N,10459.34845,W,50.905,0.19,071117,,,D*46
$GPRMC,163011.00,A,3946.77173,N,10459.34767,W,53.237,2.64,071117,,,D*49
$GPRMC,163012.00,A,3946.78652,N,10459.34664,W,53.965,2.65,071117,,,D*4E
$GPRMC,163013.00,A,3946.80138,N,10459.34606,W,53.202,1.74,071117,,,D*4E
$GPRMC,163014.00,A,3946.81631,N,10459.34592,W,54.089,0.01,071117,,,D*4D
$GPRMC,163015.00,A,3946.83115,N,10459.34576,W,53.641,0.97,071117,,,D*4F
$GPRMC,163016.00,A,3946.84615,N,10459.34549,W,53.504,0.79,071117,,,D*42
$GPRMC,163017.00,A,3946.86117,N,10459.34550,W,53.709,0.43,071117,,,D*4A
$GPRMC,163018.00,A,3946.87623,N,10459.34559,W,53.878,0.26,071117,,,D*47
$GPRMC,163019.00,A,3946.89124,N,10459.34565,W,53.624,0.24,071117,,,D*42
$GPRMC,163020.00,A,3946.90625,N,10459.34560,W,53.928,0.37,071117,,,D*42
$GPRMC,163021.00,A,3946.92146,N,10459.34566,W,54.277,0.22,071117,,,D*47
$GPRMC,163022.00,A,3946.93662,N,10459.34566,W,54.141,0.48,071117,,,D*4E
$GPRMC,163023.00,A,3946.95182,N,10459.34558,W,54.077,0.66,071117,,,D*45
$GPRMC,163024.00,A,3946.96702,N,10459.34547,W,54.381,0.46,071117,,,D*49
$GPRMC,163025.00,A,3946.98227,N,10459.34533,W,54.948,0.38,071117,,,D*41
$GPRMC,163026.00,A,3946.99767,N,10459.34521,W,55.445,0.48,071117,,,D*47
$GPRMC,163027.00,A,3947.01320,N,10459.34510,W,55.740,0.54,071117,,,D*48
$GPRMC,163028.00,A,3947.02881,N,10459.34504,W,56.003,0.49,071117,,,D*4E
$GPRMC,163029.00,A,3947.04443,N,10459.34484,W,56.177,0.75,071117,,,D*4F
$GPRMC,163030.00,A,3947.06015,N,10459.34478,W,56.515,0.34,071117,,,D*44
$GPRMC,163031.00,A,3947.07592,N,10459.34460,W,56.760,0.55,071117,,,D*40
$GPRMC,163032.00,A,3947.09168,N,10459.34445,W,56.625,0.40,071117,,,D*4F
$GPRMC,163033.00,A,3947.10755,N,10459.34436,W,57.028,0.20,071117,,,D*46
$GPRMC,163034.00,A,3947.12350,N,10459.34429,W,57.299,0.30,071117,,,D*45
$GPRMC,163035.00,A,3947.13940,N,10459.34418,W,57.119,0.21,071117,,,D*47
$GPRMC,163036.00,A,3947.15525,N,10459.34405,W,56.962,0.27,071117,,,D*42
$GPRMC,163037.00,A,3947.17106,N,10459.34402,W,56.867,359.99,071117,,,D*4D
$GPRMC,163038.00,A,3947.18682,N,10459.34392,W,56.785,0.31,071117,,,D*46
$GPRMC,163039.00,A,3947.20326,N,10459.34343,W,56.789,0.59,071117,,,D*49
$GPRMC,163040.00,A,3947.21869,N,10459.34320,W,56.611,1.06,071117,,,D*48
$GPRMC,163041.00,A,3947.23430,N,10459.34260,W,56.555,2.19,071117,,,D*40
$GPRMC,163042.00,A,3947.24996,N,10459.34159,W,56.384,2.83,071117,,,D*45
$GPRMC,163043.00,A,3947.26559,N,10459.34039,W,56.258,3.70,071117,,,D*43
$GPRMC,163044.00,A,3947.28118,N,10459.33886,W,56.173,4.62,071117,,,D*4E
$GPRMC,163045.00,A,3947.29672,N,10459.33702,W,56.023,5.57,071117,,,D*45
$GPRMC,163046.00,A,3947.31220,N,10459.33482,W,56.001,6.49,071117,,,D*4B
$GPRMC,163047.00,A,3947.32779,N,10459.33231,W,56.054,7.66,071117,,,D*42
$GPRMC,163048.00,A,3947.34344,N,10459.32941,W,56.419,8.77,071117,,,D*4E
$GPRMC,163049.00,A,3947.35880,N,10459.32608,W,56.194,9.62,071117,,,D*4A
$GPRMC,163050.00,A,3947.37414,N,10459.32260,W,55.959,10.00,071117,,,D*7D
$GPRMC,163051.00,A,3947.38956,N,10459.31908,W,56.297,10.08,071117,,,D*7C
$GPRMC,163052.00,A,3947.40516,N,10459.31553,W,56.501,10.19,071117,,,D*72
$GPRMC,163053.00,A,3947.42091,N,10459.31190,W,56.603,10.35,071117,,,D*7F
$GPRMC,163054.00,A,3947.43644,N,10459.30833,W,56.673,10.12,071117,,,D*74
$GPRMC,163055.00,A,3947.45193,N,10459.30476,W,56.579,10.12,071117,,,D*7A
$GPRMC,163056.00,A,3947.46744,N,10459.30121,W,56.323,10.05,071117,,,D*7E
$GPRMC,163057.00,A,3947.48282,N,10459.29775,W,55.817,10.02,071117,,,D*79
$GPRMC,163058.00,A,3947.49809,N,10459.29417,W,55.553,10.41,071117,,,D*73
$GPRMC,163059.00,A,3947.51327,N,10459.29063,W,55.389,10.23,071117,,,D*7E
$GPRMC,163100.00,A,3947.52840,N,10459.28710,W,55.019,10.31,071117,,,D*71
$GPRMC,163101.00,A,3947.54352,N,10459.28358,W,54.974,10.17,071117,,,D*71
$GPRMC,163102.00,A,3947.55856,N,10459.28008,W,54.775,10.23,071117,,,D*72
$GPRMC,163103.00,A,3947.57359,N,10459.27666,W,54.866,10.10,071117,,,D*79
$GPRMC,163104.00,A,3947.58865,N,10459.27327,W,55.203,10.01,071117,,,D*7D
$GPRMC,163105.00,A,3947.60378,N,10459.26977,W,55.219,10.04,071117,,,D*70
$GPRMC,163106.00,A,3947.61899,N,10459.26626,W,55.365,10.39,071117,,,D*79
$GPRMC,163107.00,A,3947.63417,N,10459.26273,W,55.705,10.24,071117,,,D*7A
$GPRMC,163108.00,A,3947.64943,N,10459.25918,W,55.807,10.14,071117,,,D*75
$GPRMC,163109.00,A,3947.66467,N,10459.25561,W,55.774,10.28,071117,,,D*7B
$GPRMC,163110.00,A,3947.68001,N,10459.25206,W,55.619,10.42,071117,,,D*79
$GPRMC,163111.00,A,3947.69525,N,10459.24840,W,55.520,10.62,071117,,,D*78
$GPRMC,163112.00,A,3947.71037,N,10459.24462,W,55.685,11.02,071117,,,D*73
$GPRMC,163113.00,A,3947.72565,N,10459.24058,W,55.815,11.57,071117,,,D*79
$GPRMC,163114.00,A,3947.74083,N,10459.23635,W,55.628,12.60,071117,,,D*78
$GPRMC,163115.00,A,3947.75600,N,10459.23180,W,56.113,13.50,071117,,,D*72
$GPRMC,163116.00,A,3947.77111,N,10459.22682,W,56.208,14.43,071117,,,D*7C
$GPRMC,163117.00,A,3947.78610,N,10459.22147,W,56.361,15.39,071117,,,D*78
$GPRMC,163118.00,A,3947.80104,N,10459.21580,W,56.268,16.48,071117,,,D*73
$GPRMC,163119.00,A,3947.81575,N,10459.20992,W,56.239,17.27,071117,,,D*73
$GPRMC,163120.00,A,3947.83055,N,10459.20402,W,56.123,18.36,071117,,,D*7F
$GPRMC,163121.00,A,3947.84538,N,10459.19751,W,56.380,19.19,071117,,,D*7F
$GPRMC,163122.00,A,3947.86009,N,10459.19076,W,56.418,20.05,071117,,,D*7A
$GPRMC,163123.00,A,3947.87469,N,10459.18364,W,56.186,21.04,071117,,,D*7B
$GPRMC,163124.00,A,3947.88923,N,10459.17631,W,56.189,21.49,071117,,,D*7C
$GPRMC,163125.00,A,3947.90372,N,10459.16884,W,56.386,21.47,071117,,,D*78
$GPRMC,163126.00,A,3947.91836,N,10459.16135,W,56.587,21.45,071117,,,D*77
$GPRMC,163127.00,A,3947.93304,N,10459.15384,W,57.235,21.50,071117,,,D*7E
$GPRMC,163128.00,A,3947.94775,N,10459.14633,W,56.855,21.42,071117,,,D*72
$GPRMC,163129.00,A,3947.96246,N,10459.13873,W,56.935,21.52,071117,,,D*7F
$GPRMC,163130.00,A,3947.97715,N,10459.13111,W,56.863,21.61,071117,,,D*7A
$GPRMC,163131.00,A,3947.99184,N,10459.12356,W,56.927,21.63,071117,,,D*78
$GPRMC,163132.00,A,3948.00657,N,10459.11602,W,57.134,21.49,071117,,,D*79
$GPRMC,163133.00,A,3948.02144,N,10459.10843,W,57.694,21.44,071117,,,D*75
$GPRMC,163134.00,A,3948.03633,N,10459.10079,W,57.630,21.47,071117,,,D*78
$GPRMC,163135.00,A,3948.05119,N,10459.09300,W,57.780,21.74,071117,,,D*7F
$GPRMC,163136.00,A,3948.06611,N,10459.08528,W,57.814,21.66,071117,,,D*7C
$GPRMC,163137.00,A,3948.08105,N,10459.07749,W,57.993,21.79,071117,,,D*7B
$GPRMC,163138.00,A,3948.09601,N,10459.06973,W,58.059,21.80,071117,,,D*76
$GPRMC,163139.00,A,3948.11068,N,10459.06157,W,57.204,23.78,071117,,,D*79
$GPRMC,163140.00,A,3948.12607,N,10459.05366,W,60.182,21.44,071117,,,D*7C
$GPRMC,163141.00,A,3948.14064,N,10459.04575,W,57.254,22.18,071117,,,D*7B
$GPRMC,163142.00,A,3948.15538,N,10459.03783,W,57.338,22.35,071117,,,D*7D
$GPRMC,163143.00,A,3948.17000,N,10459.03001,W,56.949,22.25,071117,,,D*71
$GPRMC,163144.00,A,3948.18461,N,10459.02250,W,56.529,21.36,071117,,,D*76
$GPRMC,163145.00,A,3948.19922,N,10459.01546,W,56.251,20.19,071117,,,D*7B
$GPRMC,163146.00,A,3948.21391,N,10459.00877,W,56.126,18.93,071117,,,D*75
$GPRMC,163147.00,A,3948.22853,N,10459.00262,W,55.881,17.24,071117,,,D*78
$GPRMC,163148.00,A,3948.24336,N,10458.99706,W,55.634,15.71,071117,,,D*7D
$GPRMC,163149.00,A,3948.25822,N,10458.99204,W,55.520,14.38,071117,,,D*7E
$GPRMC,163150.00,A,3948.27314,N,10458.98732,W,55.465,12.89,071117,,,D*77
$GPRMC,163151.00,A,3948.28806,N,10458.98316,W,55.392,11.64,071117,,,D*7C
$GPRMC,163152.00,A,3948.30314,N,10458.97943,W,55.622,10.30,071117,,,D*75
$GPRMC,163153.00,A,3948.31832,N,10458.97628,W,55.379,9.06,071117,,,D*4E
$GPRMC,163154.00,A,3948.33343,N,10458.97355,W,55.224,7.51,071117,,,D*4C
$GPRMC,163155.00,A,3948.34869,N,10458.97124,W,55.178,6.10,071117,,,D*43
$GPRMC,163156.00,A,3948.36428,N,10458.96939,W,55.575,4.50,071117,,,D*41
$GPRMC,163157.00,A,3948.37993,N,10458.96805,W,55.821,3.31,071117,,,D*4E
$GPRMC,163158.00,A,3948.39553,N,10458.96711,W,56.196,2.01,071117,,,D*41
$GPRMC,163159.00,A,3948.41125,N,10458.96671,W,56.732,0.95,071117,,,D*4A
$GPRMC,163200.00,A,3948.42731,N,10458.96663,W,57.483,0.23,071117,,,D*43
$GPRMC,163201.00,A,3948.44345,N,10458.96658,W,58.345,0.15,071117,,,D*4C
$GPRMC,163202.00,A,3948.45997,N,10458.96671,W,59.410,0.27,071117,,,D*47
$GPRMC,163203.00,A,3948.47661,N,10458.96653,W,60.105,0.51,071117,,,D*48
$GPRMC,163204.00,A,3948.49346,N,10458.96644,W,60.803,0.38,071117,,,D*47
$GPRMC,163205.00,A,3948.51030,N,10458.96624,W,60.913,0.16,071117,,,D*47
$GPRMC,163206.00,A,3948.52713,N,10458.96610,W,60.621,0.48,071117,,,D*43
$GPRMC,163207.00,A,3948.54390,N,10458.96590,W,60.368,0.44,071117,,,D*44
$GPRMC,163208.00,A,3948.56057,N,10458.96561,W,59.872,0.56,071117,,,D*46
$GPRMC,163209.00,A,3948.57715,N,10458.96533,W,59.566,0.57,071117,,,D*49
$GPRMC,163210.00,A,3948.59364,N,10458.96519,W,59.445,0.26,071117,,,D*43
$GPRMC,163211.00,A,3948.61017,N,10458.96507,W,59.589,0.30,071117,,,D*47
$GPRMC,163212.00,A,3948.62680,N,10458.96491,W,60.014,0.52,071117,,,D*4E
$GPRMC,163213.00,A,3948.64359,N,10458.96474,W,60.610,0.41,071117,,,D*43
$GPRMC,163214.00,A,3948.66054,N,10458.96465,W,61.268,0.12,071117,,,D*44
$GPRMC,163215.00,A,3948.67762,N,10458.96489,W,61.749,359.02,071117,,,D*4C
$GPRMC,163216.00,A,3948.69478,N,10458.96568,W,62.089,357.53,071117,,,D*45
$GPRMC,163217.00,A,3948.71208,N,10458.96631,W,62.342,358.57,071117,,,D*4C
$GPRMC,163218.00,A,3948.72931,N,10458.96635,W,61.956,359.59,071117,,,D*46
$GPRMC,163219.00,A,3948.74649,N,10458.96630,W,61.906,0.17,071117,,,D*44
$GPRMC,163220.00,A,3948.76365,N,10458.96611,W,61.584,0.31,071117,,,D*46
$GPRMC,163221.00,A,3948.78067,N,10458.96593,W,61.144,0.72,071117,,,D*4E
$GPRMC,163222.00,A,3948.79759,N,10458.96558,W,60.794,1.08,071117,,,D*47
$GPRMC,163223.00,A,3948.81440,N,10458.96513,W,60.377,1.15,071117,,,D*40
$GPRMC,163224.00,A,3948.83108,N,10458.96466,W,60.114,1.19,071117,,,D*44
$GPRMC,163225.00,A,3948.84768,N,10458.96419,W,59.754,1.23,071117,,,D*4B
$GPRMC,163226.00,A,3948.86432,N,10458.96370,W,59.496,1.32,071117,,,D*43
$GPRMC,163227.00,A,3948.88087,N,10458.96315,W,59.547,1.62,071117,,,D*4D
$GPRMC,163228.00,A,3948.89745,N,10458.96254,W,59.603,1.65,071117,,,D*4A
$GPRMC,163229.00,A,3948.91402,N,10458.96196,W,59.847,1.63,071117,,,D*47
$GPRMC,163230.00,A,3948.93067,N,10458.96141,W,60.085,1.43,071117,,,D*4E
$GPRMC,163231.00,A,3948.94731,N,10458.96087,W,60.379,1.29,071117,,,D*4B
$GPRMC,163232.00,A,3948.96417,N,10458.96032,W,60.547,1.39,071117,,,D*49
$GPRMC,163233.00,A,3948.98103,N,10458.95974,W,60.685,1.53,071117,,,D*4F
$GPRMC,163234.00,A,3948.99784,N,10458.95903,W,60.517,1.88,071117,,,D*4E
$GPRMC,163235.00,A,3949.01458,N,10458.95779,W,60.323,3.75,071117,,,D*4F
$GPRMC,163236.00,A,3949.03005,N,10458.95626,W,54.041,4.79,071117,,,D*42
$GPRMC,163237.00,A,3949.04627,N,10458.95503,W,59.607,2.79,071117,,,D*49
$GPRMC,163238.00,A,3949.06302,N,10458.95431,W,60.479,1.48,071117,,,D*46
$GPRMC,163239.00,A,3949.07967,N,10458.95379,W,59.667,1.36,071117,,,D*4A
$GPRMC,163240.00,A,3949.09625,N,10458.95318,W,59.322,1.71,071117,,,D*43
$GPRMC,163241.00,A,3949.11290,N,10458.95265,W,59.637,1.44,071117,,,D*4D
$GPRMC,163242.00,A,3949.12913,N,10458.95211,W,59.438,1.27,071117,,,D*46
$GPRMC,163243.00,A,3949.14563,N,10458.95161,W,59.452,1.54,071117,,,D*46
$GPRMC,163244.00,A,3949.16216,N,10458.95092,W,59.229,1.49,071117,,,D*4D
$GPRMC,163245.00,A,3949.17856,N,10458.95058,W,58.984,1.17,071117,,,D*43
$GPRMC,163246.00,A,3949.19494,N,10458.95014,W,58.842,1.17,071117,,,D*4F
$GPRMC,163247.00,A,3949.21132,N,10458.94960,W,58.839,1.39,071117,,,D*47
$GPRMC,163248.00,A,3949.22767,N,10458.94889,W,58.841,1.37,071117,,,D*4A
$GPRMC,163249.00,A,3949.24404,N,10458.94852,W,58.882,1.25,071117,,,D*41
$GPRMC,163250.00,A,3949.26032,N,10458.94786,W,58.635,1.58,071117,,,D*44
$GPRMC,163251.00,A,3949.27657,N,10458.94723,W,58.339,1.83,071117,,,D*41
$GPRMC,163252.00,A,3949.29282,N,10458.94641,W,58.458,2.35,071117,,,D*4B
$GPRMC,163253.00,A,3949.30904,N,10458.94526,W,58.451,3.37,071117,,,D*4F
$GPRMC,163254.00,A,3949.32526,N,10458.94369,W,58.489,4.62,071117,,,D*49
$GPRMC,163255.00,A,3949.34154,N,10458.94162,W,58.889,6.02,071117,,,D*4E
$GPRMC,163256.00,A,3949.35784,N,10458.93903,W,58.943,7.48,071117,,,D*47
$GPRMC,163257.00,A,3949.37428,N,10458.93599,W,59.186,8.70,071117,,,D*4A
$GPRMC,163258.00,A,3949.39073,N,10458.93240,W,59.623,10.23,071117,,,D*75
$GPRMC,163259.00,A,3949.40701,N,10458.92832,W,59.506,11.35,071117,,,D*74
$GPRMC,163300.00,A,3949.42350,N,10458.92394,W,60.753,11.59,071117,,,D*7E
$GPRMC,163301.00,A,3949.44001,N,10458.91871,W,61.084,13.69,071117,,,D*70
$GPRMC,163302.00,A,3949.45602,N,10458.91318,W,59.951,14.51,071117,,,D*75
$GPRMC,163303.00,A,3949.47204,N,10458.90768,W,59.711,14.57,071117,,,D*7A
$GPRMC,163304.00,A,3949.48795,N,10458.90232,W,59.443,14.48,071117,,,D*7F
$GPRMC,163305.00,A,3949.50351,N,10458.89692,W,59.452,13.98,071117,,,D*77
$GPRMC,163306.00,A,3949.51932,N,10458.89168,W,59.186,13.96,071117,,,D*7A
$GPRMC,163307.00,A,3949.53513,N,10458.88678,W,58.695,13.02,071117,,,D*78
$GPRMC,163308.00,A,3949.55094,N,10458.88248,W,58.342,11.08,071117,,,D*7B
$GPRMC,163309.00,A,3949.56701,N,10458.87897,W,58.410,8.99,071117,,,D*45
$GPRMC,163310.00,A,3949.58322,N,10458.87611,W,58.719,7.33,071117,,,D*43
$GPRMC,163311.00,A,3949.59931,N,10458.87394,W,58.537,5.26,071117,,,D*4B
$GPRMC,163312.00,A,3949.61601,N,10458.87222,W,58.604,3.73,071117,,,D*46
$GPRMC,163313.00,A,3949.63217,N,10458.87149,W,58.343,1.48,071117,,,D*44
$GPRMC,163314.00,A,3949.64860,N,10458.87144,W,59.575,359.42,071117,,,D*45
$GPRMC,163315.00,A,3949.66153,N,10458.87362,W,43.370,349.16,071117,,,D*41
$GPRMC,163316.00,A,3949.67538,N,10458.87502,W,51.617,356.61,071117,,,D*43
$GPRMC,163317.00,A,3949.69085,N,10458.87720,W,55.377,353.55,071117,,,D*48
$GPRMC,163318.00,A,3949.70709,N,10458.87980,W,58.144,351.68,071117,,,D*4B
$GPRMC,163319.00,A,3949.72328,N,10458.88324,W,58.238,349.72,071117,,,D*4E
$GPRMC,163320.00,A,3949.73955,N,10458.88736,W,58.113,347.77,071117,,,D*43
$GPRMC,163321.00,A,3949.75559,N,10458.89202,W,58.019,345.84,071117,,,D*42
$GPRMC,163322.00,A,3949.77134,N,10458.89760,W,57.789,343.40,071117,,,D*42
$GPRMC,163323.00,A,3949.78677,N,10458.90413,W,58.293,341.32,071117,,,D*45
$GPRMC,163324.00,A,3949.80224,N,10458.91093,W,58.235,340.73,071117,,,D*42
$GPRMC,163325.00,A,3949.81819,N,10458.91795,W,58.430,340.46,071117,,,D*42
$GPRMC,163326.00,A,3949.83413,N,10458.92495,W,58.591,340.69,071117,,,D*42
$GPRMC,163327.00,A,3949.84977,N,10458.93198,W,58.542,340.54,071117,,,D*42
$GPRMC,163328.00,A,3949.86515,N,10458.93890,W,58.181,340.70,071117,,,D*4B
$GPRMC,163329.00,A,3949.88051,N,10458.94576,W,57.919,340.91,071117,,,D*4A
$GPRMC,163330.00,A,3949.89583,N,10458.95260,W,57.751,340.98,071117,,,D*43
$GPRMC,163331.00,A,3949.91118,N,10458.95904,W,57.775,342.27,071117,,,D*44
$GPRMC,163332.00,A,3949.92660,N,10458.96515,W,57.593,343.32,071117,,,D*4C
$GPRMC,163333.00,A,3949.94202,N,10458.97066,W,57.286,345.07,071117,,,D*48
$GPRMC,163334.00,A,3949.95747,N,10458.97561,W,57.222,346.17,071117,,,D*44
$GPRMC,163335.00,A,3949.97301,N,10458.98032,W,57.402,346.86,071117,,,D*41
$GPRMC,163336.00,A,3949.98880,N,10458.98471,W,57.370,347.34,071117,,,D*46
$GPRMC,163337.00,A,3950.00460,N,10458.98901,W,57.372,348.05,071117,,,D*49
$GPRMC,163338.00,A,3950.02050,N,10458.99272,W,57.313,350.05,071117,,,D*43
$GPRMC,163339.00,A,3950.03624,N,10458.99528,W,57.064,353.16,071117,,,D*4C
$GPRMC,163340.00,A,3950.05201,N,10458.99703,W,56.899,355.24,071117,,,D*40
$GPRMC,163341.00,A,3950.06773,N,10458.99831,W,56.644,356.64,071117,,,D*45
$GPRMC,163342.00,A,3950.08347,N,10458.99932,W,56.523,357.30,071117,,,D*4B
$GPRMC,163343.00,A,3950.09919,N,10459.00014,W,56.628,357.23,071117,,,D*4C
$GPRMC,163344.00,A,3950.11491,N,10459.00111,W,56.541,357.19,071117,,,D*4E
$GPRMC,163345.00,A,3950.13050,N,10459.00206,W,56.153,357.07,071117,,,D*49
$GPRMC,163346.00,A,3950.14607,N,10459.00301,W,55.919,357.25,071117,,,D*4A
$GPRMC,163347.00,A,3950.16159,N,10459.00388,W,55.899,357.53,071117,,,D*4C
$GPRMC,163348.00,A,3950.17712,N,10459.00470,W,55.978,357.32,071117,,,D*42
$GPRMC,163349.00,A,3950.19264,N,10459.00564,W,55.378,357.20,071117,,,D*44
$GPRMC,163350.00,A,3950.20810,N,10459.00658,W,55.885,357.28,071117,,,D*42
$GPRMC,163351.00,A,3950.22372,N,10459.00756,W,56.199,357.34,071117,,,D*4B
$GPRMC,163352.00,A,3950.23942,N,10459.00847,W,56.429,357.28,071117,,,D*4C
$GPRMC,163353.00,A,3950.25509,N,10459.00941,W,56.341,357.19,071117,,,D*44
$GPRMC,163354.00,A,3950.27079,N,10459.01041,W,56.552,356.98,071117,,,D*47
$GPRMC,163355.00,A,3950.28657,N,10459.01149,W,56.785,356.86,071117,,,D*4D
$GPRMC,163356.00,A,3950.30244,N,10459.01265,W,57.038,356.85,071117,,,D*4F
$GPRMC,163357.00,A,3950.31829,N,10459.01378,W,57.086,356.75,071117,,,D*49
$GPRMC,163358.00,A,3950.33426,N,10459.01488,W,57.596,356.96,071117,,,D*46
$GPRMC,163359.00,A,3950.35026,N,10459.01598,W,57.533,356.91,071117,,,D*4D
$GPRMC,163400.00,A,3950.36635,N,10459.01687,W,57.541,357.34,071117,,,D*47
$GPRMC,163401.00,A,3950.38230,N,10459.01785,W,57.490,357.03,071117,,,D*43
$GPRMC,163402.00,A,3950.39836,N,10459.01886,W,57.554,356.79,071117,,,D*44
$GPRMC,163403.00,A,3950.41448,N,10459.02015,W,57.677,356.47,071117,,,D*41
$GPRMC,163404.00,A,3950.43047,N,10459.02167,W,57.769,355.33,071117,,,D*45
$GPRMC,163405.00,A,3950.44648,N,10459.02356,W,57.990,354.39,071117,,,D*49
$GPRMC,163406.00,A,3950.46255,N,10459.02565,W,58.186,353.97,071117,,,D*45
$GPRMC,163407.00,A,3950.47868,N,10459.02810,W,58.353,352.88,071117,,,D*4B
$GPRMC,163408.00,A,3950.49483,N,10459.03092,W,58.667,352.08,071117,,,D*4A
$GPRMC,163409.00,A,3950.51103,N,10459.03407,W,58.953,351.18,071117,,,D*4D
$GPRMC,163410.00,A,3950.52721,N,10459.03735,W,58.827,350.80,071117,,,D*40
$GPRMC,163411.00,A,3950.54336,N,10459.04071,W,58.744,350.81,071117,,,D*4E
$GPRMC,163412.00,A,3950.55941,N,10459.04413,W,58.335,350.61,071117,,,D*4A
$GPRMC,163413.00,A,3950.57538,N,10459.04763,W,58.484,350.51,071117,,,D*41
$GPRMC,163414.00,A,3950.59101,N,10459.05089,W,56.787,350.97,071117,,,D*40
$GPRMC,163415.00,A,3950.60666,N,10459.05425,W,57.250,350.40,071117,,,D*4B
$GPRMC,163416.00,A,3950.62245,N,10459.05769,W,57.316,350.34,071117,,,D*44
$GPRMC,163417.00,A,3950.63818,N,10459.06118,W,57.295,350.47,071117,,,D*4B
$GPRMC,163418.00,A,3950.65375,N,10459.06457,W,56.647,350.56,071117,,,D*46
$GPRMC,163419.00,A,3950.66910,N,10459.06790,W,55.939,350.55,071117,,,D*43
$GPRMC,163420.00,A,3950.68432,N,10459.07123,W,55.313,350.47,071117,,,D*44
$GPRMC,163421.00,A,3950.69913,N,10459.07468,W,55.345,350.54,071117,,,D*41
$GPRMC,163422.00,A,3950.71426,N,10459.07796,W,55.163,350.70,071117,,,D*42
$GPRMC,163423.00,A,3950.72937,N,10459.08122,W,55.041,350.58,071117,,,D*40
$GPRMC,163424.00,A,3950.74450,N,10459.08445,W,55.045,350.68,071117,,,D*4E
$GPRMC,163425.00,A,3950.75964,N,10459.08770,W,54.870,350.50,071117,,,D*45
$GPRMC,163426.00,A,3950.77471,N,10459.09097,W,54.797,350.49,071117,,,D*4C
$GPRMC,163427.00,A,3950.78969,N,10459.09423,W,54.333,350.49,071117,,,D*47
$GPRMC,163428.00,A,3950.80433,N,10459.09739,W,52.815,350.54,071117,,,D*40
$GPRMC,163429.00,A,3950.81864,N,10459.10044,W,51.850,350.70,071117,,,D*4F
$GPRMC,163430.00,A,3950.83277,N,10459.10345,W,50.909,350.62,071117,,,D*40
$GPRMC,163431.00,A,3950.84671,N,10459.10646,W,50.386,350.40,071117,,,D*4F
$GPRMC,163432.00,A,3950.86051,N,10459.10941,W,49.961,350.53,071117,,,D*4B
$GPRMC,163433.00,A,3950.87412,N,10459.11219,W,49.455,350.75,071117,,,D*41
$GPRMC,163434.00,A,3950.88761,N,10459.11502,W,49.029,350.55,071117,,,D*4E
$GPRMC,163435.00,A,3950.90105,N,10459.11793,W,48.995,350.61,071117,,,D*40
$GPRMC,163436.00,A,3950.91450,N,10459.12082,W,49.184,350.60,071117,,,D*4B
$GPRMC,163437.00,A,3950.92812,N,10459.12378,W,49.731,350.41,071117,,,D*4E
$GPRMC,163438.00,A,3950.94184,N,10459.12665,W,50.088,350.96,071117,,,D*4F
$GPRMC,163439.00,A,3950.95581,N,10459.12947,W,50.975,351.31,071117,,,D*46
$GPRMC,163440.00,A,3950.96995,N,10459.13294,W,51.233,350.55,071117,,,D*4D
$GPRMC,163441.00,A,3950.98429,N,10459.13581,W,51.936,350.60,071117,,,D*43
$GPRMC,163442.00,A,3950.99878,N,10459.13912,W,52.191,350.56,071117,,,D*4C
$GPRMC,163443.00,A,3951.01306,N,10459.14228,W,52.652,350.52,071117,,,D*46
$GPRMC,163444.00,A,3951.02758,N,10459.14514,W,52.921,350.53,071117,,,D*4F
$GPRMC,163445.00,A,3951.04222,N,10459.14826,W,53.290,350.50,071117,,,D*4F
$GPRMC,163446.00,A,3951.05690,N,10459.15150,W,53.591,350.35,071117,,,D*4C
$GPRMC,163447.00,A,3951.07163,N,10459.15475,W,53.967,350.40,071117,,,D*41
$GPRMC,163448.00,A,3951.08650,N,10459.15795,W,54.238,350.65,071117,,,D*4A
